[{
  "lat": 39.740081583333335,
  "lon": 39.740081583333335,
  "name": "Crist LLC",
  "address": "5278 Gottlieb Groves",
  "id": 4198
}, {
  "lat": 39.74010558333333,
  "lon": 39.74010558333333,
  "name": "Mills - Hagenes",
  "address": "51366 Shyanne Isle",
  "id": 23174
}, {
  "lat": 39.74010508333333,
  "lon": 39.74010508333333,
  "name": "Hirthe, Nitzsche and Hammes",
  "address": "1026 Sipes Camp",
  "id": 65433
}, {
  "lat": 39.74027230555556,
  "lon": 39.74027230555556,
  "name": "Denesik - Osinski",
  "address": "090 Maggie Valley",
  "id": 90038
}, {
  "lat": 39.74012375,
  "lon": 39.74012375,
  "name": "Wisoky - Blanda",
  "address": "55996 Greg Groves",
  "id": 35793
}, {
  "lat": 39.74009683333333,
  "lon": 39.74009683333333,
  "name": "Kihn and Sons",
  "address": "31836 Abbie Turnpike",
  "id": 15433
}, {
  "lat": 39.75428355555555,
  "lon": 39.75428355555555,
  "name": "Grant - Dickinson",
  "address": "1721 Zemlak Village",
  "id": 55874
}, {
  "lat": 39.75436930555556,
  "lon": 39.75436930555556,
  "name": "Renner - Tremblay",
  "address": "42710 Kutch Ford",
  "id": 66736
}, {
  "lat": 39.753826777777775,
  "lon": 39.753826777777775,
  "name": "Spencer LLC",
  "address": "19221 Schmidt Summit",
  "id": 27123
}, {
  "lat": 39.74596144444445,
  "lon": 39.74596144444445,
  "name": "O'Keefe, VonRueden and Prosacco",
  "address": "9370 Aylin Lights",
  "id": 53188
}, {
  "lat": 39.74774263888889,
  "lon": 39.74774263888889,
  "name": "Considine - Effertz",
  "address": "68812 Claire Trail",
  "id": 67386
}, {
  "lat": 39.74773097222222,
  "lon": 39.74773097222222,
  "name": "Aufderhar, Koelpin and Rath",
  "address": "5526 Shad Highway",
  "id": 46853
}, {
  "lat": 39.75391588888889,
  "lon": 39.75391588888889,
  "name": "Welch - Daniel",
  "address": "67709 Deondre Bridge",
  "id": 65584
}, {
  "lat": 39.753909722222225,
  "lon": 39.753909722222225,
  "name": "Dietrich, Friesen and Buckridge",
  "address": "70388 Herminia Pines",
  "id": 68119
}, {
  "lat": 39.753881416666665,
  "lon": 39.753881416666665,
  "name": "Greenfelder Inc",
  "address": "425 Salvatore Trace",
  "id": 98804
}, {
  "lat": 39.753545083333336,
  "lon": 39.753545083333336,
  "name": "Sauer - Schoen",
  "address": "1258 Doyle Circle",
  "id": 71737
}, {
  "lat": 39.75773130555555,
  "lon": 39.75773130555555,
  "name": "Grant, Abshire and Powlowski",
  "address": "3228 Ortiz Forest",
  "id": 3906
}, {
  "lat": 39.75773408333333,
  "lon": 39.75773408333333,
  "name": "Hoeger and Sons",
  "address": "74518 Christiansen Village",
  "id": 4577
}, {
  "lat": 39.757682833333334,
  "lon": 39.757682833333334,
  "name": "Witting Inc",
  "address": "657 Auer Path",
  "id": 48855
}, {
  "lat": 39.75766619444445,
  "lon": 39.75766619444445,
  "name": "Huels, Miller and Jacobi",
  "address": "17899 Jade Tunnel",
  "id": 19017
}, {
  "lat": 39.75493402777778,
  "lon": 39.75493402777778,
  "name": "Walsh and Sons",
  "address": "234 Georgette Glens",
  "id": 53736
}, {
  "lat": 39.75493177777778,
  "lon": 39.75493177777778,
  "name": "Harris, Gusikowski and Mraz",
  "address": "70628 Greg Parkway",
  "id": 79355
}, {
  "lat": 39.75493186111111,
  "lon": 39.75493186111111,
  "name": "Windler and Sons",
  "address": "6941 Rice Hill",
  "id": 89987
}, {
  "lat": 39.750933333333336,
  "lon": 39.750933333333336,
  "name": "Kulas, Wiegand and Dare",
  "address": "169 Cade Roads",
  "id": 17301
}, {
  "lat": 39.75493402777778,
  "lon": 39.75493402777778,
  "name": "Sipes - Ernser",
  "address": "938 Wilkinson Stravenue",
  "id": 84509
}, {
  "lat": 39.75436930555556,
  "lon": 39.75436930555556,
  "name": "Toy - Quigley",
  "address": "2116 Rohan Mills",
  "id": 47168
}, {
  "lat": 39.740081583333335,
  "lon": 39.740081583333335,
  "name": "Schultz, Rutherford and Ortiz",
  "address": "1446 Abernathy Mews",
  "id": 34876
}, {
  "lat": 39.74010558333333,
  "lon": 39.74010558333333,
  "name": "Koepp, Roberts and Rodriguez",
  "address": "29264 Yost Meadows",
  "id": 61372
},{
  "lat": 39.74010558333333,
  "lon": 39.74010558333333,
  "name": "Turing School",
  "address": "1 Yost Meadows",
  "id": 1
},{
  "lat": 39.74010558333333,
  "lon": 39.74010558333333,
  "name": "gSchool",
  "address": "2 Yost Meadows",
  "id": 2
}]
